,City Name,Country Name,Latitude,Longitude,Date,Max Temperature,Wind Speed,Cloudiness,Humidity
0,polessk,RU,54.862,21.1028,1655305603,62.65,11.97,46,71
1,kaka,TM,37.3482,59.6143,1655305604,97.29,10.04,65,18
2,warrnambool,AU,-38.3833,142.4833,1655305604,55.81,21.09,98,91
3,port alfred,ZA,-33.5906,26.891,1655305605,55.33,26.28,85,69
4,abha,SA,18.2164,42.5053,1655305558,84.45,17.27,40,7
5,yeppoon,AU,-23.1333,150.7333,1655305605,64.18,5.64,100,85
6,acapulco,MX,16.8634,-99.8901,1655305360,76.82,11.5,100,94
7,tuatapere,NZ,-46.1333,167.6833,1655305605,44.51,8.3,71,89
8,bambous virieux,MU,-20.3428,57.7575,1655305606,71.22,19.98,42,78
9,cherskiy,RU,68.75,161.3,1655305606,51.03,6.58,0,47
10,punta arenas,CL,-53.15,-70.9167,1655305607,42.91,12.66,75,75
11,rikitea,PF,-23.1203,-134.9692,1655305607,72.59,7.54,91,70
12,yellowknife,CA,62.456,-114.3525,1655305607,65.5,3.76,100,44
13,kaitangata,NZ,-46.2817,169.8464,1655305608,44.38,11.7,51,85
14,velingara,SN,13.15,-14.1167,1655305608,90.3,6.42,99,51
15,nadym,RU,65.5333,72.5167,1655305609,58.86,16.28,100,56
16,gallup,US,35.5281,-108.7426,1655305609,70.56,4.61,0,21
17,ushuaia,AR,-54.8,-68.3,1655305609,42.46,5.75,75,70
18,hithadhoo,MV,-0.6,73.0833,1655305610,83.19,5.55,46,69
19,cockburn town,TC,21.4612,-71.1419,1655305610,82.36,16.11,40,69
20,caravelas,BR,-17.7125,-39.2481,1655305611,75.61,7.16,90,54
21,kavali,IN,14.9167,79.9833,1655305611,92.3,8.41,43,45
22,inirida,CO,3.8653,-67.9239,1655305611,72.0,1.28,100,97
23,cape town,ZA,-33.9258,18.4232,1655305612,62.38,3.0,22,61
24,pavlohrad,UA,48.5167,35.8667,1655305612,64.29,5.57,84,71
25,lebu,CL,-37.6167,-73.65,1655305612,51.6,4.38,37,86
26,new norfolk,AU,-42.7826,147.0587,1655305613,45.91,1.81,100,89
27,honiara,SB,-9.4333,159.95,1655305613,76.73,7.54,89,87
28,tasiilaq,GL,65.6145,-37.6368,1655305613,41.16,9.51,100,98
29,tilichiki,RU,60.4667,166.1,1655305614,43.05,4.94,22,87
30,baft,IR,29.234,56.6057,1655305614,85.08,3.49,89,12
31,bluff,NZ,-46.6,168.3333,1655305615,45.81,26.11,100,82
32,hofn,IS,64.2539,-15.2082,1655305615,53.62,4.61,100,87
33,kahului,US,20.8947,-156.47,1655305615,76.84,11.5,100,78
34,slave lake,CA,55.2834,-114.769,1655305616,57.18,16.11,100,72
35,saint-philippe,RE,-21.3585,55.7679,1655305616,72.99,14.67,37,86
36,kodiak,US,57.79,-152.4072,1655305616,51.31,6.91,100,87
37,ponta do sol,PT,32.6667,-17.1,1655305617,75.0,13.96,22,80
38,burns lake,CA,54.2331,-125.7533,1655305617,52.63,3.47,0,61
39,labuhan,ID,-6.8844,112.2051,1655305618,79.92,8.19,81,86
40,cidreira,BR,-30.1811,-50.2056,1655305618,63.95,1.54,12,68
41,albany,US,42.6001,-73.9662,1655305366,78.67,4.18,59,59
42,mataura,NZ,-46.1927,168.8643,1655305619,45.48,7.23,87,92
43,puerto ayora,EC,-0.7393,-90.3518,1655305619,76.96,3.0,93,92
44,korla,CN,41.7597,86.1469,1655305619,89.82,6.8,33,7
45,jining,CN,35.405,116.5814,1655305620,80.67,8.21,7,39
46,busselton,AU,-33.65,115.3333,1655305620,60.78,10.47,49,83
47,chapais,CA,49.7834,-74.8492,1655305620,74.41,9.66,69,34
48,kapaa,US,22.0752,-159.319,1655305621,75.18,4.61,40,97
49,normandin,CA,48.8333,-72.5321,1655305621,71.42,5.73,1,55
50,bambanglipuro,ID,-7.95,110.2833,1655305622,77.61,4.54,98,87
51,pochutla,MX,15.7432,-96.4661,1655305622,75.02,4.16,100,92
52,aklavik,CA,68.2191,-135.0107,1655305622,50.56,6.6,28,52
53,grand-lahou,CI,5.1367,-5.0242,1655305623,76.03,11.32,100,92
54,elsterwerda,DE,51.45,13.5333,1655305623,83.43,2.39,13,30
55,vaini,TO,-21.2,-175.2,1655305624,71.76,4.61,75,88
56,itarema,BR,-2.9248,-39.9167,1655304859,84.24,12.95,10,56
57,avarua,CK,-21.2078,-159.775,1655305624,75.25,5.75,70,83
58,hobart,AU,-42.8794,147.3294,1655305480,46.26,0.0,100,95
59,lorengau,PG,-2.0226,147.2712,1655305625,81.84,7.61,93,75
60,komsomolskiy,UZ,40.4272,71.7189,1655305625,83.46,14.58,100,32
61,port elizabeth,ZA,-33.918,25.5701,1655305625,50.31,1.99,64,88
62,kurchum,KZ,48.5722,83.6542,1655305626,64.2,7.67,69,74
63,mpanda,TZ,-6.3655,31.0409,1655305626,81.57,3.29,44,38
64,kadi,IN,23.3,72.3333,1655305627,91.26,12.55,84,48
65,diu,IN,20.7141,70.9822,1655305627,85.71,14.05,20,75
66,lagoa,PT,39.05,-27.9833,1655305627,63.66,11.25,0,88
67,laguna,US,38.421,-121.4238,1655305628,77.02,5.75,0,42
68,constantine,DZ,36.365,6.6147,1655305393,99.81,9.22,0,14
69,norman wells,CA,65.282,-126.8329,1655305628,49.71,7.54,92,82
70,upernavik,GL,72.7868,-56.1549,1655305629,30.15,8.46,76,69
71,bend,US,44.0582,-121.3153,1655305629,53.15,5.99,0,60
72,vardo,NO,70.3705,31.1107,1655305629,44.58,13.8,75,87
73,dalby,AU,-27.1833,151.2667,1655305365,61.41,1.74,100,64
74,alofi,NU,-19.0595,-169.9187,1655305630,78.49,18.01,81,74
75,verkhnyaya inta,RU,65.9811,60.3094,1655305630,60.17,9.57,92,64
76,general roca,AR,-39.0333,-67.5833,1655305631,52.72,4.41,59,48
77,klaksvik,FO,62.2266,-6.589,1655305631,52.72,12.1,100,96
78,narsaq,GL,60.9167,-46.05,1655305632,55.62,9.93,7,58
79,cabo san lucas,MX,22.8909,-109.9124,1655305632,86.61,4.0,0,48
80,khatanga,RU,71.9667,102.5,1655305632,61.21,11.97,37,36
81,richards bay,ZA,-28.783,32.0377,1655305633,63.99,11.27,32,54
82,storslett,NO,69.7678,21.0247,1655305389,50.0,10.36,75,71
83,utiel,ES,39.5667,-1.2,1655305633,98.64,12.75,100,13
84,avera,US,33.194,-82.5271,1655305634,92.55,4.09,36,46
85,clearwater,US,27.9659,-82.8001,1655305481,91.02,5.75,75,70
86,axim,GH,4.8699,-2.2405,1655305036,76.06,9.64,100,92
87,yaan,NG,7.3833,8.5667,1655305634,86.29,4.38,87,61
88,ulaangom,MN,49.9811,92.0667,1655305635,65.21,8.5,77,62
89,zeya,RU,53.75,127.2667,1655305635,56.28,3.56,96,86
90,ixtapa,MX,20.7,-105.2,1655305636,82.22,4.61,75,78
91,san vicente,AR,-26.6167,-54.1333,1655305636,67.71,5.91,14,46
92,east london,ZA,-33.0153,27.9116,1655305636,56.82,26.53,48,62
93,kloulklubed,PW,7.0419,134.2556,1655305637,77.5,11.7,87,77
94,kanor,IN,24.4333,74.2667,1655305637,91.76,13.51,76,43
95,jamestown,US,42.097,-79.2353,1655305366,81.99,4.0,36,79
96,bengkulu,ID,-3.8004,102.2655,1655305638,76.24,4.05,100,89
97,atuona,PF,-9.8,-139.0333,1655305638,78.01,20.71,86,68
98,chokurdakh,RU,70.6333,147.9167,1655305638,60.04,8.21,100,36
99,chuy,UY,-33.6971,-53.4616,1655305639,61.47,4.59,56,60
100,hermanus,ZA,-34.4187,19.2345,1655305639,56.8,2.1,15,59
101,clyde river,CA,70.4692,-68.5914,1655305396,37.63,4.61,100,100
102,discovery bay,US,37.9085,-121.6002,1655305640,77.38,6.82,0,45
103,castro,BR,-24.7911,-50.0119,1655305640,56.98,1.34,100,74
104,samarai,PG,-10.6167,150.6667,1655305641,80.46,10.38,100,80
105,shingu,JP,33.7333,135.9833,1655305641,67.78,1.7,100,93
106,safaga,EG,26.7292,33.9365,1655305641,88.48,21.47,0,44
107,barrow,US,71.2906,-156.7887,1655305642,33.82,6.91,100,100
108,ulu-telyak,RU,54.9086,56.9669,1655305642,65.59,4.03,99,80
109,bonthe,SL,7.5264,-12.505,1655305642,82.53,12.24,100,69
110,saskylakh,RU,71.9167,114.0833,1655305643,48.78,8.9,1,45
111,mahebourg,MU,-20.4081,57.7,1655305643,71.26,20.04,42,78
112,ballina,AU,-28.8667,153.5667,1655305644,57.02,6.08,0,97
113,chernyshevskiy,RU,63.0128,112.4714,1655305644,57.51,3.91,40,63
114,nikolskoye,RU,59.7035,30.7861,1655305644,58.78,13.4,100,96
115,zyryanka,RU,65.75,150.85,1655305645,56.97,6.49,100,60
116,saint-pierre,RE,-21.3393,55.4781,1655305645,73.9,3.44,20,73
117,shimanovsk,RU,52.0,127.7,1655305646,57.22,5.39,74,98
118,coroico,BO,-16.1889,-67.7271,1655305646,71.01,4.65,0,38
119,porbandar,IN,21.6422,69.6093,1655305646,86.2,15.37,61,75
120,cururupu,BR,-1.8283,-44.8683,1655305647,87.58,8.32,49,50
121,los llanos de aridane,ES,28.6585,-17.9182,1655305647,73.15,12.66,40,77
122,college,US,64.8569,-147.8028,1655305648,54.28,0.0,75,85
123,bemidji,US,47.4736,-94.8803,1655305600,72.55,10.36,0,62
124,the valley,AI,18.217,-63.0578,1655305648,85.1,17.27,20,74
125,mayumba,GA,-3.432,10.6554,1655305648,77.43,9.64,22,73
126,montrose,US,38.4166,-108.2673,1655305503,59.45,1.39,0,15
127,talnakh,RU,69.4865,88.3972,1655305649,69.94,10.65,89,47
128,sao felix do xingu,BR,-6.6447,-51.995,1655305649,88.66,7.87,26,42
129,hambantota,LK,6.1241,81.1185,1655305650,80.94,3.44,40,94
130,thompson,CA,55.7435,-97.8558,1655305650,62.17,12.8,97,72
131,saint anthony,US,45.0205,-93.218,1655305650,71.53,11.5,40,65
132,vanimo,PG,-2.6741,141.3028,1655305651,78.93,6.22,95,87
133,tomatlan,MX,19.9333,-105.25,1655305651,83.3,0.78,100,61
134,calama,CL,-22.4667,-68.9333,1655305652,55.89,14.97,0,5
135,izhma,RU,65.0083,53.9113,1655305652,69.48,5.84,1,30
136,butaritari,KI,3.0707,172.7902,1655305652,82.17,11.92,100,74
137,watsa,CD,3.0372,29.5355,1655305653,70.12,3.6,95,82
138,kavaratti,IN,10.5669,72.642,1655305653,83.39,20.6,100,74
139,katsuura,JP,35.1333,140.3,1655305654,66.67,6.55,100,93
140,danilov,RU,58.1908,40.1717,1655305654,62.08,11.77,48,64
141,duiwelskloof,ZA,-23.6934,30.14,1655305654,68.02,4.47,1,33
142,faanui,PF,-16.4833,-151.75,1655305655,79.93,20.24,24,76
143,mendi,PG,-6.1761,143.6513,1655305655,53.94,3.44,82,97
144,gashua,NG,12.871,11.0482,1655305655,102.16,7.16,68,21
145,fortuna,US,40.5982,-124.1573,1655305656,54.93,1.01,100,92
146,marystown,CA,47.1666,-55.1483,1655305656,55.44,7.25,100,63
147,basco,PH,20.4487,121.9702,1655305657,84.49,6.96,62,74
148,georgetown,MY,5.4112,100.3354,1655305657,80.53,8.05,40,85
149,platanos,GR,37.6667,21.6167,1655305435,84.85,13.13,94,82
150,westport,US,41.1415,-73.3579,1655305634,80.98,10.36,0,73
151,sungaipenuh,ID,-2.0833,101.3833,1655305658,63.48,1.83,93,97
152,correntina,BR,-13.3433,-44.6367,1655305658,84.83,6.78,84,37
153,karpogory,RU,64.0019,44.4451,1655305659,73.2,11.65,100,44
154,bredasdorp,ZA,-34.5322,20.0403,1655305659,53.58,4.97,11,63
155,arraial do cabo,BR,-22.9661,-42.0278,1655305659,73.26,9.22,40,49
156,mar del plata,AR,-38.0023,-57.5575,1655305660,58.95,2.15,87,63
157,mehamn,NO,71.0357,27.8492,1655305390,44.55,9.22,75,93
158,port lincoln,AU,-34.7333,135.8667,1655305660,56.35,8.48,17,82
159,ketchikan,US,55.3422,-131.6461,1655305500,54.07,5.75,0,82
160,maltahohe,NA,-24.8333,16.9833,1655305661,56.97,12.59,0,28
161,saint charles,US,38.7667,-90.7335,1655305661,89.98,11.5,0,64
162,constitucion,CL,-35.3333,-72.4167,1655305661,54.99,2.82,3,76
163,forbes,AU,-33.3833,148.0167,1655305662,43.52,8.25,11,77
164,torbay,CA,47.6666,-52.7314,1655305662,53.28,11.01,100,68
165,hamilton,US,39.1834,-84.5333,1655305663,90.09,8.05,0,66
166,esperance,AU,-33.8667,121.9,1655305663,56.19,10.22,1,59
167,sao mateus,BR,-18.7161,-39.8589,1655305663,77.25,7.4,100,47
168,buala,SB,-8.145,159.5921,1655305664,80.08,10.33,100,83
169,clarence town,AU,-32.5833,151.7833,1655305664,49.91,3.4,0,75
170,rawson,AR,-43.3002,-65.1023,1655305664,48.65,2.28,8,61
171,kiruna,SE,67.8557,20.2251,1655305665,49.12,11.5,100,71
172,waipawa,NZ,-41.4122,175.5153,1655305665,45.81,4.29,96,81
173,longyearbyen,SJ,78.2186,15.6401,1655305666,40.84,16.11,75,75
174,beringovskiy,RU,63.05,179.3167,1655305666,38.66,5.64,14,89
175,anadyr,RU,64.75,177.4833,1655305666,39.0,17.0,27,93
176,byron bay,AU,-28.65,153.6167,1655305667,56.95,4.54,0,84
177,concarneau,FR,47.875,-3.9225,1655305667,81.39,10.02,4,56
178,liverpool,GB,53.4106,-2.9779,1655305566,74.28,11.5,0,54
179,saint george,US,37.1041,-113.5841,1655305668,74.43,3.44,0,17
180,carauari,BR,-4.8828,-66.8958,1655305668,80.37,1.74,37,79
181,pimentel,PE,-6.8367,-79.9342,1655305669,68.29,13.8,0,60
182,mont-de-marsan,FR,44.0,-0.6667,1655305669,96.44,4.61,0,46
183,xai-xai,MZ,-25.0519,33.6442,1655305670,69.13,16.84,47,75
184,port hardy,CA,50.6996,-127.4199,1655305396,50.34,1.1,100,82
185,iranshahr,IR,27.2025,60.6848,1655305670,106.65,11.63,0,9
186,port hedland,AU,-20.3167,118.5667,1655305670,66.25,5.75,46,72
187,kismayo,SO,-0.3582,42.5454,1655305671,79.79,14.05,1,78
188,chumikan,RU,54.7183,135.315,1655305671,35.56,3.62,100,100
189,amapa,BR,1.0,-52.0,1655305672,83.91,6.31,50,62
190,metro,ID,-5.1131,105.3067,1655305672,74.55,3.89,100,87
191,codrington,AU,-38.2667,141.9667,1655305672,55.35,17.56,95,91
192,vila franca do campo,PT,37.7167,-25.4333,1655305673,71.2,8.37,74,80
193,kuryk,KZ,43.2,51.65,1655305673,83.52,8.37,44,41
194,tuktoyaktuk,CA,69.4541,-133.0374,1655305674,36.95,8.97,6,73
195,nanortalik,GL,60.1432,-45.2371,1655305674,38.43,4.36,62,88
196,ardahan,TR,41.1087,42.7022,1655305674,57.85,7.31,66,82
197,alice town,BS,25.7167,-79.3,1655305675,82.72,7.87,96,71
198,provideniya,RU,64.3833,-173.3,1655305675,36.34,6.29,89,94
199,majene,ID,-3.5403,118.9707,1655305676,78.64,5.55,100,89
200,bairiki,KI,1.3292,172.9752,1655305676,80.6,5.75,20,83
201,broken hill,AU,-31.95,141.4333,1655305676,54.54,9.19,97,75
202,chitipa,MW,-9.7024,33.2697,1655305677,72.63,6.89,82,56
203,garowe,SO,8.4054,48.4845,1655305677,91.09,20.87,14,26
204,norilsk,RU,69.3535,88.2027,1655305394,69.35,13.24,92,48
205,vostok,RU,46.4856,135.8833,1655305678,52.03,3.18,100,87
206,victoria,HK,22.2855,114.1577,1655305589,77.95,1.01,100,94
207,pangnirtung,CA,66.1451,-65.7125,1655305678,38.64,0.56,100,98
208,tura,IN,25.5198,90.2201,1655305679,72.66,4.74,100,98
209,mangan,IN,27.5167,88.5333,1655305679,74.1,0.34,100,99
210,algarrobo,CO,10.1869,-74.5753,1655305679,83.28,7.9,45,73
211,halifax,CA,44.6453,-63.5724,1655305443,65.52,15.01,60,73
212,hay river,CA,60.8156,-115.7999,1655305680,56.64,6.4,100,53
213,dikson,RU,73.5069,80.5464,1655305680,38.44,7.09,34,76
214,ribeira grande,PT,38.5167,-28.7,1655305681,70.2,6.91,40,78
215,gornopravdinsk,RU,60.05,69.9,1655305681,55.0,6.17,100,76
216,vao,NC,-22.6667,167.4833,1655305681,73.04,22.32,100,83
217,kenai,US,60.5544,-151.2583,1655305682,50.09,9.22,0,88
218,talakan,RU,50.3167,130.3667,1655305682,58.21,4.14,100,96
219,mayo,US,38.8876,-76.5119,1655305683,88.12,8.05,0,65
220,lagunas,PE,-5.2269,-75.6753,1655305683,81.64,1.14,34,56
221,santa vitoria do palmar,BR,-33.5189,-53.3681,1655305510,60.87,4.5,21,60
222,dickinson,US,29.4608,-95.0513,1655305399,91.08,10.36,20,73
223,coahuayana,MX,18.7333,-103.6833,1655305684,86.52,0.72,99,63
224,atherton,GB,53.5237,-2.4935,1655305422,76.28,3.0,100,51
225,tiksi,RU,71.6872,128.8694,1655305684,36.43,13.89,100,79
226,zhangye,CN,38.9342,100.4517,1655305685,78.82,4.79,70,9
227,itaituba,BR,-4.2761,-55.9836,1655305685,83.8,4.61,59,70
228,simeykyne,UA,48.3264,39.5337,1655305685,66.69,4.43,100,73
229,margate,GB,51.3813,1.3862,1655305686,74.1,10.25,79,50
230,dzaoudzi,YT,-12.7887,45.2699,1655305686,80.49,4.61,20,78
231,gold coast,AU,-28.0,153.4333,1655305687,57.99,6.91,0,96
232,pingliang,CN,35.5392,106.6861,1655305687,69.58,7.14,0,38
233,henties bay,NA,-22.116,14.2845,1655305688,63.03,9.04,1,56
234,berlevag,NO,70.8578,29.0864,1655305688,44.6,8.05,75,87
235,nerchinskiy zavod,RU,51.3088,119.61,1655305688,54.1,3.69,98,93
236,lerwick,GB,60.1545,-1.1494,1655305689,53.6,14.32,100,91
237,madridejos,ES,39.4682,-3.532,1655305422,96.73,10.29,99,9
238,bethel,US,41.3712,-73.414,1655305439,80.15,1.01,0,59
239,nouadhibou,MR,20.931,-17.0347,1655305664,65.82,25.93,8,88
240,ust-omchug,RU,61.15,149.6333,1655305689,43.14,2.46,100,94
241,staryy nadym,RU,65.6118,72.6842,1655305690,60.24,15.99,100,54
242,lompoc,US,34.6391,-120.4579,1655305690,68.77,3.44,0,76
243,souillac,MU,-20.5167,57.5167,1655305690,72.82,17.94,37,79
244,evensk,RU,61.95,159.2333,1655305691,41.56,6.93,100,88
245,srednekolymsk,RU,67.45,153.6833,1655305691,56.1,9.51,28,43
246,roald,NO,62.5833,6.1333,1655305692,61.72,8.05,75,77
247,pevek,RU,69.7008,170.3133,1655305692,29.95,5.41,4,80
248,ostrovnoy,RU,68.0531,39.5131,1655305692,55.83,15.01,100,60
249,daru,PG,-9.0763,143.2092,1655305693,79.39,14.88,78,87
250,qaanaaq,GL,77.484,-69.3632,1655305693,30.13,1.63,22,60
251,barcelos,PT,41.5388,-8.6151,1655305455,82.85,4.54,100,42
252,shemonaikha,KZ,50.6328,81.9056,1655305694,58.71,6.29,100,90
253,fairbanks,US,64.8378,-147.7164,1655305694,54.3,0.0,75,84
254,carnarvon,AU,-24.8667,113.6333,1655305694,69.87,9.22,75,94
255,tayu,ID,-6.5397,111.0518,1655305695,79.57,8.99,50,86
256,sitka,US,57.0531,-135.33,1655305695,51.69,4.61,40,76
257,chicama,PE,-7.8447,-79.1469,1655305696,63.14,6.73,18,65
258,coruripe,BR,-10.1256,-36.1756,1655305696,76.93,15.73,98,83
259,bestobe,KZ,52.4994,73.0975,1655305696,59.22,8.03,60,84
260,lethem,GY,3.3803,-59.7968,1655305697,83.62,6.38,22,72
261,isangel,VU,-19.55,169.2667,1655305697,75.83,12.93,74,85
262,guano,EC,-1.5833,-78.6333,1655305698,55.76,5.75,40,72
263,opuwo,NA,-18.0607,13.84,1655305698,79.43,4.25,0,13
264,flinders,AU,-34.5833,150.8552,1655305698,56.37,1.99,7,58
265,bathsheba,BB,13.2167,-59.5167,1655305699,86.61,23.02,40,74
266,kavieng,PG,-2.5744,150.7967,1655305699,81.72,10.13,85,78
267,terra rica,BR,-22.7094,-52.6169,1655305700,71.87,10.58,35,49
268,shaunavon,CA,49.6501,-108.4181,1655305700,49.84,29.21,100,93
269,san javier,ES,37.8063,-0.8374,1655305700,99.09,4.61,0,55
270,chifeng,CN,42.2683,118.9636,1655305701,65.48,5.55,7,64
271,pocao de pedras,BR,-4.6667,-44.85,1655305701,83.66,6.13,9,57
272,sao filipe,CV,14.8961,-24.4956,1655305702,73.9,9.13,34,82
273,misratah,LY,32.3754,15.0925,1655305702,80.29,12.48,0,49
274,ulladulla,AU,-35.35,150.4667,1655305702,54.27,6.91,32,57
275,energetik,RU,51.7445,58.7934,1655305703,72.66,6.04,0,45
276,tirumullaivasal,IN,11.2333,79.8333,1655305703,86.56,11.3,63,68
277,gwanda,ZW,-20.9333,29.0,1655305703,74.07,10.11,3,25
278,canutama,BR,-6.5339,-64.3831,1655305704,86.13,2.75,26,59
279,bosaso,SO,11.2842,49.1816,1655305704,88.72,8.75,2,70
280,matara,LK,5.9485,80.5353,1655305705,78.58,9.24,100,87
281,valdivia,CL,-39.8142,-73.2459,1655305705,49.37,1.54,72,92
282,nileshwar,IN,12.25,75.1,1655305705,81.0,5.95,87,82
283,pierre,US,44.3683,-100.351,1655305706,59.92,11.5,0,58
284,kholm-zhirkovskiy,RU,55.5189,33.4731,1655305706,58.95,12.91,90,81
285,olavarria,AR,-36.8927,-60.3225,1655305707,55.02,2.8,100,75
286,apatou,GF,5.155,-54.3472,1655305707,87.62,5.23,28,55
287,nouakchott,MR,18.0858,-15.9785,1655305669,82.33,13.49,90,72
288,kyren,RU,51.6828,102.1408,1655305708,64.15,1.25,72,82
289,bayir,TR,37.2687,28.2167,1655305708,72.12,2.64,64,58
290,angoche,MZ,-16.2325,39.9086,1655305709,75.76,11.56,13,75
291,paamiut,GL,61.994,-49.6678,1655305710,38.17,17.72,25,75
292,bom jardim,BR,-7.7958,-35.5872,1655305710,78.85,9.53,43,67
293,darhan,MN,49.4867,105.9228,1655305710,66.36,6.4,100,74
294,kawalu,ID,-7.3817,108.2082,1655305711,73.22,3.02,100,94
295,hilo,US,19.7297,-155.09,1655305711,74.28,3.44,20,77
296,bang saphan,TH,11.2126,99.5117,1655305711,80.28,1.57,65,82
297,hasaki,JP,35.7333,140.8333,1655305712,64.8,5.68,100,91
298,pinotepa nacional,MX,16.3167,-98.0167,1655305712,81.0,7.49,98,68
299,litovko,RU,49.2361,135.1742,1655305713,60.42,4.45,2,88
300,saint-augustin,CA,51.226,-58.6502,1655305713,70.56,6.98,0,35
301,yulara,AU,-25.2406,130.9889,1655305713,59.83,7.38,75,48
302,maniitsoq,GL,65.4167,-52.9,1655305714,37.65,8.9,38,66
303,caraz,PE,-9.0486,-77.81,1655305714,66.49,3.09,5,52
304,naze,JP,28.3667,129.4833,1655305714,70.57,6.73,100,97
305,taree,AU,-31.9,152.4667,1655305715,42.06,0.0,0,100
306,komsomolets,KZ,53.7453,62.0708,1655305715,70.23,4.03,52,58
307,husavik,IS,66.0449,-17.3389,1655305715,55.27,7.31,19,60
308,ponta delgada,PT,37.7333,-25.6667,1655305715,71.51,16.11,75,88
309,san quintin,MX,30.4833,-115.95,1655305716,62.96,2.71,28,78
310,broome,US,42.2506,-75.833,1655305716,79.18,6.91,0,56
311,banjar,ID,-8.19,114.9675,1655305716,78.71,3.49,89,90
312,coihaique,CL,-45.5752,-72.0662,1655305682,42.75,6.91,40,81
313,goiatuba,BR,-18.0125,-49.3547,1655305717,82.72,8.39,0,41
314,coquimbo,CL,-29.9533,-71.3436,1655305686,55.13,2.3,0,71
315,marsa matruh,EG,31.3525,27.2453,1655305717,79.11,10.74,0,62
316,sangar,RU,63.9242,127.4739,1655305718,52.66,4.21,77,88
317,mana,GF,5.6592,-53.7767,1655305718,84.58,11.23,12,65
318,ilulissat,GL,69.2167,-51.1,1655305719,37.42,6.91,20,70
319,gisborne,NZ,-38.6533,178.0042,1655305716,52.59,7.27,2,69
320,torit,SS,4.4133,32.5678,1655305719,84.27,1.3,86,58
321,huarmey,PE,-10.0681,-78.1522,1655305719,65.3,8.03,40,70
322,mount gambier,AU,-37.8333,140.7667,1655305720,54.27,10.33,89,90
323,noshiro,JP,40.2039,140.0242,1655305720,60.44,5.97,100,94
324,dunedin,NZ,-45.8742,170.5036,1655305534,44.8,3.0,27,65
325,sechura,PE,-5.5569,-80.8222,1655305721,68.86,11.79,3,63
326,bilibino,RU,68.0546,166.4372,1655305721,43.02,5.88,0,63
327,alta floresta,BR,-9.8756,-56.0861,1655305721,89.4,5.97,1,42
328,agadez,NE,19.75,10.25,1655305722,105.12,8.5,22,14
329,severo-kurilsk,RU,50.6789,156.125,1655305722,47.07,7.27,98,89
330,renqiu,CN,38.6989,116.0936,1655305723,78.44,8.59,100,47
331,batemans bay,AU,-35.7167,150.1833,1655305723,51.1,5.3,48,65
332,inverbervie,GB,56.8446,-2.28,1655305723,67.14,10.6,66,72
333,ilebo,CD,-4.3167,20.5833,1655305724,88.66,1.41,90,46
334,gat,IL,31.61,34.7642,1655305444,84.4,14.14,0,100
335,lazaro cardenas,MX,17.9583,-102.2,1655305724,81.57,4.34,100,74
336,diego de almagro,CL,-26.3667,-70.05,1655305725,57.7,3.65,100,46
337,maceio,BR,-9.6658,-35.7353,1655305725,74.64,3.44,100,88
338,saldanha,ZA,-33.0117,17.9442,1655305427,57.11,3.94,3,54
339,carutapera,BR,-1.195,-46.02,1655305726,87.06,10.18,75,54
340,pomoryany,UA,49.6409,24.9307,1655305726,62.94,7.99,93,57
341,osinki,RU,52.8432,49.5132,1655305726,74.57,5.68,79,64
342,tessalit,ML,20.1986,1.0114,1655305727,106.38,15.77,45,16
343,umm kaddadah,SD,13.6017,26.6876,1655305727,99.95,15.86,97,13
344,ginda,IN,30.6945,78.4932,1655305728,71.2,5.12,97,56
345,corn island,NI,12.1694,-83.0418,1655305728,76.5,30.15,100,93
346,nebug,RU,44.1714,39.0036,1655305728,71.58,4.9,5,83
347,menongue,AO,-14.6585,17.691,1655305729,81.05,2.77,10,16
348,vaitape,PF,-16.5167,-151.75,1655305729,79.95,20.24,24,76
349,iqaluit,CA,63.7506,-68.5145,1655305729,41.7,5.01,100,81
350,alice springs,AU,-23.7,133.8833,1655305730,49.55,0.0,3,66
351,puerto cabezas,NI,14.0351,-83.3888,1655305730,79.11,11.14,100,85
352,kozhva,RU,65.1073,57.0459,1655305731,66.24,6.62,81,43
353,mahajanga,MG,-15.7167,46.3167,1655305731,78.82,4.61,20,78
354,lima,PE,-12.0432,-77.0282,1655305601,64.38,6.91,36,72
355,erie,US,42.7667,-78.6664,1655305731,81.16,1.01,61,62
356,remedios,CU,22.4947,-79.5458,1655305732,85.12,12.62,24,65
357,tahta,EG,26.7693,31.5021,1655305732,97.83,18.68,0,18
358,waddan,LY,29.1614,16.139,1655305733,91.92,11.01,0,16
359,santa fe,AR,-31.6333,-60.7,1655305470,64.02,5.01,100,65
360,atambua,ID,-9.1061,124.8925,1655305733,71.06,5.55,36,85
361,sao joao da barra,BR,-21.6403,-41.0511,1655305734,77.09,3.67,81,53
362,praia da vitoria,PT,38.7333,-27.0667,1655305734,66.0,13.73,4,83
363,san cristobal,VE,7.7669,-72.225,1655305734,75.38,5.03,99,95
364,batagay-alyta,RU,67.8006,130.4114,1655305735,51.21,4.92,91,90
365,mineiros,BR,-17.5694,-52.5511,1655305735,81.55,5.93,12,42
366,erenhot,CN,43.6475,111.9767,1655305735,75.43,5.55,36,25
367,yumen,CN,40.2833,97.2,1655305736,80.85,8.75,97,6
368,shache,CN,38.4167,77.2406,1655305736,87.15,3.69,66,17
369,malanje,AO,-9.5402,16.341,1655305737,85.21,3.13,49,16
370,kendari,ID,-3.945,122.4989,1655305737,75.61,2.04,97,91
371,yokadouma,CM,3.5167,15.05,1655305737,79.77,2.98,100,69
372,touros,BR,-5.1989,-35.4608,1655305738,84.47,15.32,3,52
373,luorong,CN,24.4058,109.6086,1655305738,75.31,1.9,95,85
374,porto torres,IT,40.835,8.3972,1655305739,86.18,7.18,55,47
375,jiangyou,CN,31.7667,104.7167,1655305739,76.84,3.33,83,62
376,baykalsk,RU,51.5058,104.1469,1655305739,56.16,2.82,47,91
377,bandarbeyla,SO,9.4942,50.8122,1655305740,78.3,30.8,48,77
378,barao de melgaco,BR,-16.1944,-55.9675,1655305740,89.49,2.46,5,30
379,shaoyang,CN,27.2315,111.4525,1655305740,74.59,0.49,94,87
380,harnosand,SE,62.6323,17.9379,1655305741,68.0,12.95,43,50
381,nome,US,64.5011,-165.4064,1655305741,42.87,13.8,100,87
382,jasper,US,37.2001,-94.3502,1655305742,84.0,19.57,0,66
383,hojo,JP,33.9766,132.7777,1655305743,70.48,5.14,100,87
384,javanrud,IR,34.7961,46.5172,1655305743,78.96,12.8,0,18
385,mogadishu,SO,2.0371,45.3438,1655305744,79.52,15.93,3,82
386,bonavista,CA,48.6499,-53.1147,1655305744,45.23,12.73,96,82
387,taltal,CL,-25.4,-70.4833,1655305745,58.5,3.91,100,73
388,sosnovo-ozerskoye,RU,52.5249,111.5418,1655305745,57.33,3.27,68,62
389,khash,IR,28.2211,61.2158,1655305745,97.29,4.25,96,10
390,ouadda,CF,8.0777,22.4007,1655305746,88.57,2.93,75,47
391,launceston,AU,-41.45,147.1667,1655305746,49.8,8.05,100,97
392,sfantu gheorghe,RO,45.8667,25.7833,1655305746,71.82,8.84,28,45
393,jawhar,SO,2.7809,45.5005,1655305747,81.3,17.85,8,62
394,ola,RU,59.5833,151.2833,1655305747,46.15,1.3,100,87
395,biak,ID,-0.9131,122.8766,1655305748,75.43,1.05,64,83
396,vega baja,PR,18.4444,-66.3877,1655305748,85.24,1.99,100,86
397,balangir,IN,20.7167,83.4833,1655305748,92.07,6.49,92,44
398,vitoria do mearim,BR,-3.4622,-44.8706,1655305749,86.22,6.53,20,49
399,brainerd,US,46.358,-94.2008,1655305561,73.65,8.05,0,52
400,luganville,VU,-15.5333,167.1667,1655305749,77.31,7.27,34,87
401,morondava,MG,-20.2833,44.2833,1655305638,75.99,6.96,0,73
402,xining,CN,36.6167,101.7667,1655305750,63.25,2.62,100,33
403,salinopolis,BR,-0.6136,-47.3561,1655305750,85.51,13.22,80,59
404,jiazi,CN,22.8779,116.067,1655305750,78.26,3.44,81,88
405,russell,US,32.3502,-85.1999,1655305751,89.01,4.9,85,54
406,port moresby,PG,-9.4431,147.1797,1655305751,76.41,4.34,95,88
407,tautira,PF,-17.7333,-149.15,1655305752,78.53,20.38,34,80
408,ternate,ID,0.8,127.4,1655305752,80.42,4.03,98,79
409,havre-saint-pierre,CA,50.2334,-63.5986,1655305753,58.26,9.44,74,72
410,hirara,JP,24.8,125.2833,1655305753,81.73,16.17,100,82
411,whitecourt,CA,54.1502,-115.6855,1655305753,54.97,11.59,100,82
412,tigzirt,DZ,36.8886,4.1198,1655305754,87.24,10.71,24,46
413,jaumave,MX,23.4167,-99.3833,1655305754,78.48,4.59,93,65
414,puerto colombia,CO,10.9878,-74.9547,1655305755,84.29,9.22,100,74
415,buchanan,LR,5.8808,-10.0467,1655305755,79.59,11.14,99,82
416,namibe,AO,-15.1961,12.1522,1655305755,71.76,9.08,18,60
417,fort saint james,CA,54.4333,-124.25,1655305756,54.93,3.91,5,55
418,ancud,CL,-41.8697,-73.8203,1655305756,50.23,4.16,25,89
419,loksa,EE,59.5764,25.7214,1655305757,61.93,21.14,74,61
420,andenes,NO,69.3143,16.1194,1655305757,48.18,8.05,75,81
421,kargasok,RU,59.0556,80.8572,1655305757,56.12,12.68,95,96
422,lata,PT,40.1629,-8.3327,1655305758,84.06,9.4,89,44
423,aripuana,BR,-9.1667,-60.6333,1655305523,86.34,1.68,76,49
424,stornoway,GB,58.2093,-6.3865,1655305758,54.93,17.27,75,97
425,trelew,AR,-43.249,-65.3051,1655305486,48.9,1.45,10,58
426,sulangan,PH,11.1373,123.7228,1655305759,84.88,9.42,10,73
427,dryden,CA,49.7833,-92.7503,1655305759,68.94,8.14,86,60
428,lokoja,NG,7.8024,6.743,1655305760,87.22,5.66,91,63
429,mitsamiouli,KM,-11.3847,43.2844,1655305760,78.46,5.66,3,77
430,ugra,RU,54.7777,34.3267,1655305760,60.21,10.11,42,84
431,lawton,US,34.6087,-98.3903,1655305761,85.06,23.0,0,62
432,tatarsk,RU,55.219,75.9828,1655305761,57.97,7.34,100,82
433,ville-marie,CA,47.3335,-79.433,1655305762,65.53,8.12,100,85
434,san pietro in casale,IT,44.6996,11.4022,1655305762,90.12,9.71,30,45
435,svetlyy,RU,54.675,20.1347,1655305516,62.65,11.14,68,71
436,suicheng,CN,33.8963,117.9331,1655305510,82.98,4.16,76,43
437,rio grande,BR,-32.035,-52.0986,1655305763,60.91,2.86,0,62
438,meulaboh,ID,4.1363,96.1285,1655305763,75.4,6.08,100,89
439,luwuk,ID,-0.9516,122.7875,1655305763,76.26,1.97,67,85
440,nivala,FI,63.9167,24.9667,1655305764,64.69,12.73,21,50
441,luderitz,NA,-26.6481,15.1594,1655305694,68.99,14.36,20,36
442,mtsensk,RU,53.2766,36.5733,1655305764,62.44,9.82,85,76
443,starodub,RU,52.5844,32.7633,1655305765,63.07,9.73,51,73
444,moree,AU,-29.4667,149.85,1655305765,51.48,2.57,0,78
445,alim,PH,9.5649,122.4876,1655305695,80.62,2.64,60,81
446,imeni poliny osipenko,RU,52.4201,136.4853,1655305765,55.42,6.22,99,97
447,salalah,OM,17.0151,54.0924,1655305766,86.09,8.05,40,79
448,arkhipo-osipovka,RU,44.37,38.52,1655305766,72.32,2.73,16,78
449,voznesenye,RU,61.0106,35.4781,1655305767,54.34,5.61,91,82
450,pisco,PE,-13.7,-76.2167,1655305497,64.45,6.91,20,68
451,haradok,BY,55.4624,29.9816,1655305767,65.77,12.44,51,54
452,kumluca,TR,36.3703,30.2869,1655305767,80.26,8.01,32,65
453,hualmay,PE,-11.0964,-77.6139,1655305768,64.08,7.9,48,70
454,grindavik,IS,63.8424,-22.4338,1655305768,52.27,19.57,75,66
455,rawah,IQ,34.4816,41.9093,1655305768,96.08,15.88,0,17
456,zhezkazgan,KZ,47.8043,67.7144,1655305769,78.78,8.95,0,22
457,harper,LR,4.375,-7.7169,1655305769,76.87,11.3,100,88
458,yar-sale,RU,66.8333,70.8333,1655305770,64.35,5.53,85,44
459,longhua,CN,23.6137,114.1919,1655305770,73.17,0.47,100,99
460,shujaabad,PK,29.8797,71.2931,1655305770,98.65,11.74,0,14
461,guerrero negro,MX,27.9769,-114.0611,1655305621,65.39,8.88,0,74
462,olafsvik,IS,64.8945,-23.7142,1655305771,49.73,13.35,94,69
463,makakilo city,US,21.3469,-158.0858,1655305479,73.72,3.44,0,78
464,omboue,GA,-1.5746,9.2618,1655305771,78.93,12.33,69,68
465,taywarah,AF,33.35,64.4167,1655305772,69.17,15.41,56,19
466,parati,BR,-23.2178,-44.7131,1655305772,73.87,3.6,84,60
467,agadir,MA,30.4202,-9.5982,1655305690,81.05,8.68,75,60
468,anamur,TR,36.0751,32.8369,1655305773,79.77,9.89,16,68
469,muros,ES,42.7762,-9.0603,1655305773,76.08,9.69,98,70
470,kourou,GF,5.1552,-52.6478,1655305760,87.85,8.9,84,68
471,porangatu,BR,-13.4408,-49.1486,1655305774,90.36,9.78,69,35
472,maliq,AL,40.7058,20.6997,1655305774,70.39,3.09,42,60
473,mananara,MG,-16.1667,49.7667,1655305774,72.05,6.35,71,90
474,labuan,MY,5.2767,115.2417,1655305775,82.78,6.29,100,77
475,torata,PE,-17.0769,-70.8433,1655305775,62.51,5.95,0,14
476,beyneu,KZ,45.3167,55.2,1655305776,90.59,10.45,98,13
477,nisia floresta,BR,-6.0911,-35.2086,1655305776,86.81,12.15,2,59
478,kiama,AU,-34.6833,150.8667,1655305776,56.37,5.99,10,59
479,faya,SA,18.3851,42.4509,1655305777,84.72,6.58,60,22
480,buriti bravo,BR,-5.8372,-43.8336,1655305777,85.71,7.87,36,47
481,tahe,CN,52.3333,124.7333,1655305778,56.12,3.15,88,94
482,sinnamary,GF,5.3833,-52.95,1655305778,83.55,10.49,29,67
483,tupik,RU,54.4253,119.9327,1655305778,55.08,2.71,50,69
484,perth,AU,-31.9333,115.8333,1655305779,58.33,8.05,75,93
485,almaznyy,RU,48.0448,40.045,1655305779,65.71,5.01,100,71
486,thonon-les-bains,FR,46.25,6.5,1655305780,82.8,6.46,44,34
487,wangaratta,AU,-36.3667,146.3333,1655305780,51.48,6.91,100,95
488,krasnoselkup,RU,65.7,82.4667,1655305780,70.27,5.1,98,59
489,texarkana,US,33.4251,-94.0477,1655305682,84.42,16.11,75,73
490,berbera,SO,10.4396,45.0143,1655305781,91.62,3.36,0,59
491,ambon,ID,-3.6954,128.1814,1655305781,78.24,2.3,40,15
492,zile,TR,40.3031,35.8864,1655305782,71.29,7.78,57,60
493,skegness,GB,53.1436,0.3363,1655305782,75.27,8.28,100,75
494,sunrise manor,US,36.2111,-115.0731,1655305782,85.51,10.36,0,7
495,kapit,MY,2.0167,112.9333,1655305783,74.08,0.85,58,99
496,nizhniy tsasuchey,RU,50.5167,115.1333,1655305783,62.53,5.66,45,65
497,abnub,EG,27.2696,31.1511,1655305784,96.91,16.78,0,18
498,nemuro,JP,43.3236,145.575,1655305784,52.16,13.58,100,93
499,muli,MV,2.9167,73.5667,1655305784,84.09,9.8,47,71
500,swift current,CA,50.2834,-107.8014,1655305785,52.61,11.5,100,93
501,poddorye,RU,57.4695,31.1156,1655305785,54.07,10.89,100,92
502,hami,CN,42.8,93.45,1655305786,93.0,14.27,91,12
503,malkangiri,IN,18.35,81.9,1655305786,84.25,1.92,96,61
504,rabaul,PG,-4.1967,152.1721,1655305786,78.69,5.88,89,80
505,arlit,NE,18.7369,7.3853,1655305787,101.52,19.95,32,20
506,ekhabi,RU,53.5102,142.9671,1655305787,46.6,4.74,100,98
507,monrovia,LR,6.3005,-10.7969,1655305788,79.59,12.73,100,81
508,yambio,SS,4.5721,28.3955,1655305788,82.8,4.03,100,56
509,kabare,CD,-2.4683,28.8242,1655305788,69.03,3.71,11,80
510,puerto leguizamo,CO,-0.1934,-74.7819,1655305789,82.17,0.89,48,56
511,jutai,BR,-5.1833,-68.9,1655305789,84.24,0.56,75,59
512,kruisfontein,ZA,-34.0033,24.7314,1655305790,47.88,18.25,61,65
513,airai,TL,-8.9266,125.4092,1655305790,57.29,3.29,44,78
514,janakkala,FI,60.9,24.6,1655305790,69.8,11.56,55,39
515,tsimlyansk,RU,47.6461,42.1019,1655305791,77.07,1.63,70,46
516,sisimiut,GL,66.9395,-53.6735,1655305791,39.16,10.51,13,56
517,ode,NG,7.7899,5.7117,1655305792,79.21,6.24,94,80
518,zonguldak,TR,41.25,31.8333,1655305792,69.6,7.99,0,66
519,sabang,ID,5.8933,95.3214,1655305792,81.9,18.88,100,75
520,pokhara,NP,28.2333,83.9833,1655305793,79.02,5.7,91,61
521,vila,PT,42.0304,-8.1588,1655305793,86.7,4.76,100,34
522,terrak,NO,65.087,12.3715,1655305793,57.07,3.0,97,87
523,esmeralda,CU,21.8525,-78.1169,1655305794,84.43,12.37,14,62
524,kongolo,CD,-5.3833,27.0,1655305794,92.39,4.36,13,28
525,tezu,IN,27.9167,96.1667,1655305795,72.3,2.71,100,99
526,kenora,CA,49.8167,-94.4337,1655305651,62.78,11.99,72,88
527,wapi pathum,TH,15.8452,103.3768,1655305795,83.97,5.97,100,63
528,haines junction,CA,60.7522,-137.5108,1655305795,47.66,2.06,99,75
529,whitehorse,CA,60.7161,-135.0538,1655305499,47.8,3.0,100,83
530,taoudenni,ML,22.6783,-3.9836,1655305796,111.47,7.2,0,5
531,whitianga,NZ,-36.8333,175.7,1655305796,55.26,11.21,0,78
532,dwarka,IN,22.2394,68.9678,1655305797,85.86,15.79,38,78
533,turukhansk,RU,65.8167,87.9833,1655305797,69.57,8.43,100,58
534,villazon,BO,-22.0866,-65.5942,1655305797,52.74,2.21,0,7
535,thinadhoo,MV,0.5333,72.9333,1655305798,84.22,7.63,71,69
536,geraldton,AU,-28.7667,114.6,1655305798,59.41,5.75,100,88
537,semnan,IR,35.5729,53.3971,1655305799,91.6,12.46,0,15
538,baruun-urt,MN,46.6806,113.2792,1655305799,62.58,5.57,100,64
539,qeshm,IR,26.9581,56.2719,1655305799,96.67,21.12,0,59
540,chateaubelair,VC,13.2833,-61.25,1655305800,80.17,14.56,59,81
541,grenfell,AU,-33.9,148.1667,1655305800,44.33,7.72,61,72
542,matay,EG,28.419,30.7792,1655305801,95.81,14.83,0,19
